{
    "d": [
        {
            "__type": "BranchLocator",
            "ID": "3",
            "Name": "AL AIN",
            "lat": "24.221505",
            "lng": "55.769989",
            "Address": "Sehmi Jaber Al Ahbabi Bldg.,\r\nNear Al Ain Co-Operative Socity,\r\nAl Ain, U.A.E",
            "Area": "ABU DHABI",
            "City": "AL AIN",
            "CBEmiratesCode": "A"
        },
        {
            "__type": "BranchLocator",
            "ID": "37",
            "Name": "AL WAHDA",
            "lat": "24.470594",
            "lng": "54.372178",
            "Address": "Shop No. 263, 1st Floor, Al Wahda Mall, Hazza Bin Zayed St, Old Airport",
            "Area": "ABU DHABI",
            "City": "ABU DHABI",
            "CBEmiratesCode": "A"
        },
        {
            "__type": "BranchLocator",
            "ID": "44",
            "Name": "HAMEEM",
            "lat": "24.155493",
            "lng": "54.424972",
            "Address": "Shop No. GF 104, Al Dhafra Mall, Abu Dhabi",
            "Area": "ABU DHABI",
            "City": "ABU DHABI",
            "CBEmiratesCode": "A"
        },
        {
            "__type": "BranchLocator",
            "ID": "25",
            "Name": "MADINAT ZAYED",
            "lat": "23.659526",
            "lng": "53.727593",
            "Address": "New Industrial Area, Sannyah, Next to JASS supermarket, Madinat Zayed (Badazayed)",
            "Area": "ABU DHABI",
            "City": "ABU DHABI",
            "CBEmiratesCode": "A"
        },
        {
            "__type": "BranchLocator",
            "ID": "38",
            "Name": "MAFRAQ CENTRE",
            "lat": "24.258503",
            "lng": "54.625566",
            "Address": "Shop No. 124, Ground Floor, Mafraq Centre, China Camp, Workers City 2, Al Mafraq, Abu Dhabi, UAE.",
            "Area": "ABU DHABI",
            "City": "ABU DHABI",
            "CBEmiratesCode": "A"
        },
        {
            "__type": "BranchLocator",
            "ID": "63",
            "Name": "MAFRAQ INDUSTRIAL",
            "lat": "27.2046  ",
            "lng": "77.4977 ",
            "Address": "Mafraq Industrial Area,\r\nNear Smart Gift Market \r\nAbudhabi\r\n",
            "Area": "ABU DHABI",
            "City": "ABU DHABI",
            "CBEmiratesCode": "A"
        },
        {
            "__type": "BranchLocator",
            "ID": "54",
            "Name": "MUSAFFAH",
            "lat": "24.34458",
            "lng": "54.49718",
            "Address": "Musaffah 36, Al madina as sinaiya 1st , Musaffah Abudhabi 20309",
            "Area": "ABU DHABI",
            "City": "ABU DHABI",
            "CBEmiratesCode": "A"
        },
        {
            "__type": "BranchLocator",
            "ID": "58",
            "Name": "TASAMEEM",
            "lat": "24.317173",
            "lng": "54.472656",
            "Address": "Tasameem workers city, Musaffah 5 east, Abudhabi",
            "Area": "ABU DHABI",
            "City": "ABU DHABI",
            "CBEmiratesCode": "A"
        },
        {
            "__type": "BranchLocator",
            "ID": "32",
            "Name": "AL NAHDA",
            "lat": "25.297595",
            "lng": "55.383415",
            "Address": "Shop No 1, Ground Floor,Al Magrudy Residence, Al Nahda 2nd,Amman Street, Dubai",
            "Area": "DUBAI",
            "City": "DUBAI",
            "CBEmiratesCode": "D"
        },
        {
            "__type": "BranchLocator",
            "ID": "36",
            "Name": "DIC",
            "lat": "24.852405",
            "lng": "55.056127",
            "Address": "VILLAGE NO. 1A , SOUK NO. 02 , SAIH SUHAIB STREET. 2 , DUBAI INDUSTRIAL CITY , DUBAI",
            "Area": "DUBAI",
            "City": "DUBAI",
            "CBEmiratesCode": "D"
        },
        {
            "__type": "BranchLocator",
            "ID": "43",
            "Name": "DIP",
            "lat": "24.976768",
            "lng": "55.201245",
            "Address": "Pasons Hyper Market. Fakhree Building, Shop No-05 Dubai Investment Park Second-Dubai, U.A.E",
            "Area": "DUBAI",
            "City": "DUBAI",
            "CBEmiratesCode": "D"
        },
        {
            "__type": "BranchLocator",
            "ID": "21",
            "Name": "DRY DOCKS",
            "lat": "25.041912965425848",
            "lng": "55.18190681835079",
            "Address": "Drydocks World Dubai Accommodation – Gate A - “S” Block bldg – Jumeira 1 Area.",
            "Area": "DUBAI",
            "City": "DUBAI",
            "CBEmiratesCode": "D"
        },
        {
            "__type": "BranchLocator",
            "ID": "53",
            "Name": "DUBAI SOUTH",
            "lat": "24.886129",
            "lng": "55.123021",
            "Address": "Shop No 5, Sakany Retail, Sakani Dubai",
            "Area": "DUBAI",
            "City": "DUBAI",
            "CBEmiratesCode": "D"
        },
        {
            "__type": "BranchLocator",
            "ID": "39",
            "Name": "FRIJ MURAR",
            "lat": "25.275526",
            "lng": "55.308954",
            "Address": "Shop No. 13, Ground Floor, Zarooni Building, Al Mararr Area, Deira, Dubai, UAE.",
            "Area": "DUBAI",
            "City": "DUBAI",
            "CBEmiratesCode": "D"
        },
        {
            "__type": "BranchLocator",
            "ID": "45",
            "Name": "GRAND HYPER",
            "lat": "25.00986",
            "lng": "55.112407",
            "Address": "Shop no. 5 \u0026 6 , Grand hyper , Jebel Ali",
            "Area": "DUBAI",
            "City": "JEBEL ALI",
            "CBEmiratesCode": "D"
        },
        {
            "__type": "BranchLocator",
            "ID": "12",
            "Name": "JEBEL ALI",
            "lat": "25.005792",
            "lng": "55.103643",
            "Address": "Shop No.44, Mezzanine Floor, Jabel Ali Mall,\r\nNear PARCO, Jabel Ali industrial Area, \r\nJabel Ali, Dubai, U.A.E",
            "Area": "DUBAI",
            "City": "DUBAI",
            "CBEmiratesCode": "D"
        },
        {
            "__type": "BranchLocator",
            "ID": "14",
            "Name": "KARAMA",
            "lat": "25.245347",
            "lng": "55.300283",
            "Address": "Khalifa Thani Al Tayer Bldg.,\r\nOpp. Sunrise Super Market, \r\nAl Karama, Dubai, U.A.E",
            "Area": "DUBAI",
            "City": "DUBAI",
            "CBEmiratesCode": "D"
        },
        {
            "__type": "BranchLocator",
            "ID": "19",
            "Name": "SATWA",
            "lat": "25.234109",
            "lng": "55.278036",
            "Address": "Fatma Abdullah Bakheet Al Suwaidi Bldg.,\r\nOpp. Fakkri Center, Near Satwa Roundabout,\r\nSatwa, Dubai, U.A.E",
            "Area": "DUBAI",
            "City": "DUBAI",
            "CBEmiratesCode": "D"
        },
        {
            "__type": "BranchLocator",
            "ID": "52",
            "Name": "SONAPUR MANGO",
            "lat": "25.273435",
            "lng": "55.428337",
            "Address": "Shop No 4, Hassan Rashed Al Abbar Bldg, Same building with Sonapur Mango Super Market, Sonapur",
            "Area": "DUBAI",
            "City": "DUBAI",
            "CBEmiratesCode": "D"
        },
        {
            "__type": "BranchLocator",
            "ID": "49",
            "Name": "TALAL MALL",
            "lat": "24.996639",
            "lng": "55.142203",
            "Address": "G05, Al Bateel Mall, Jebel Ali First, Dubai, UAE",
            "Area": "DUBAI",
            "City": "JEBEL ALI",
            "CBEmiratesCode": "D"
        },
        {
            "__type": "BranchLocator",
            "ID": "55",
            "Name": "DIBBA",
            "lat": "25.6003868",
            "lng": "56.2695982",
            "Address": "Shop no 1, Ground floor, Safeer Mall, Hamad Bin Abdulla Road, Dibba, Fujairah",
            "Area": "SHARJAH \u0026 NORTHERN EMIRATES",
            "City": "DIBBA",
            "CBEmiratesCode": "F"
        },
        {
            "__type": "BranchLocator",
            "ID": "2",
            "Name": "AJMAN",
            "lat": "25.411258",
            "lng": "55.443589",
            "Address": "SHOP NO 6 \u00267,Geepas Bldng,P.B. No. 5271,Humaid Bin Abdul Aziz Street,\r\nOpp.Mashreq Bank\r\n,Ajman, U.A.E",
            "Area": "SHARJAH \u0026 NORTHERN EMIRATES",
            "City": "AJMAN",
            "CBEmiratesCode": "J"
        },
        {
            "__type": "BranchLocator",
            "ID": "56",
            "Name": "AJMAN NESTO",
            "lat": "25.378714",
            "lng": "55.463255",
            "Address": "Shop no. 3, ground floor, Fathima Building Amman Street Ajman Sanaya Ajman City",
            "Area": "SHARJAH \u0026 NORTHERN EMIRATES",
            "City": "AJMAN",
            "CBEmiratesCode": "J"
        },
        {
            "__type": "BranchLocator",
            "ID": "23",
            "Name": "RAKIA",
            "lat": "25.653329",
            "lng": "55.786366",
            "Address": "Opposite Mabani steel,\r\nNext to Madina Supermarket,\r\nAl Hamra/Al Jazeera,\r\nRAK Investment Authority, RAK, U.A.E",
            "Area": "SHARJAH \u0026 NORTHERN EMIRATES",
            "City": "RAS AL KHAIMAH",
            "CBEmiratesCode": "R"
        },
        {
            "__type": "BranchLocator",
            "ID": "18",
            "Name": "RAS AL KHAIMAH",
            "lat": "25.795348",
            "lng": "55.972656",
            "Address": "Sony Building, Opp. Post office,\r\nAl Nakheel, RAK, U.A.E",
            "Area": "SHARJAH \u0026 NORTHERN EMIRATES",
            "City": "RAS AL KHAIMAH",
            "CBEmiratesCode": "R"
        },
        {
            "__type": "BranchLocator",
            "ID": "57",
            "Name": "AL KHAN NESTO",
            "lat": "25.6004",
            "lng": "56.269598",
            "Address": "Shop no. 2 Ground floor, Nesto Hypermarket Al Khan Street Al Majaz 3 Sharjah",
            "Area": "SHARJAH \u0026 NORTHERN EMIRATES",
            "City": "SHARJAH",
            "CBEmiratesCode": "S"
        },
        {
            "__type": "BranchLocator",
            "ID": "42",
            "Name": "GRAND MALL",
            "lat": "25.354255",
            "lng": "55.395347",
            "Address": "Shop No 1,2 , Ground Floor, Grand Mall Sharjah, Plot no. 113, Al Musalla, Ibrahim Mohammed Al Medfa’a Street, Al Gharb area, Sharjah, UAE.",
            "Area": "SHARJAH \u0026 NORTHERN EMIRATES",
            "City": "SHARJAH",
            "CBEmiratesCode": "S"
        },
        {
            "__type": "BranchLocator",
            "ID": "15",
            "Name": "KHORFAKKAN",
            "lat": "25.34835",
            "lng": "56.348612",
            "Address": "Sh.Khalid St., Opp. Khorfakkan Post Office,\r\nAl Rafa\u0027a, Khorfakkan, \r\nSharjah, U.A.E",
            "Area": "SHARJAH \u0026 NORTHERN EMIRATES",
            "City": "SHARJAH",
            "CBEmiratesCode": "S"
        },
        {
            "__type": "BranchLocator",
            "ID": "31",
            "Name": "SAIF-ZONE",
            "lat": "25.334005",
            "lng": "55.49231",
            "Address": "SAIF Shop A11-01, SAIF-Zone area, Sharjah, UAE",
            "Area": "SHARJAH \u0026 NORTHERN EMIRATES",
            "City": "SHARJAH",
            "CBEmiratesCode": "S"
        },
        {
            "__type": "BranchLocator",
            "ID": "24",
            "Name": "SAJJA - 1",
            "lat": "25.301776",
            "lng": "55.632598",
            "Address": "Sajja Industrial Area\r\nShop No 6, opp Drake \u0026 Scull Intl PJSC",
            "Area": "SHARJAH \u0026 NORTHERN EMIRATES",
            "City": "SHARJAH",
            "CBEmiratesCode": "S"
        },
        {
            "__type": "BranchLocator",
            "ID": "34",
            "Name": "SAJJA - 2",
            "lat": "25.33361",
            "lng": "55.624012",
            "Address": "Shop No 7\r\nBuilding of Mohamed \u0026 Ahmed Jassim Al Mahmood,\r\nAl Sajja Industrial Area-2",
            "Area": "SHARJAH \u0026 NORTHERN EMIRATES",
            "City": "SHARJAH",
            "CBEmiratesCode": "S"
        },
        {
            "__type": "BranchLocator",
            "ID": "47",
            "Name": "SAJJA - 3",
            "lat": "25.305934",
            "lng": "55.628138",
            "Address": "Shop No 8, near Big Bazaar , Sajaa indl area, Sharjah",
            "Area": "SHARJAH \u0026 NORTHERN EMIRATES",
            "City": "SHARJAH",
            "CBEmiratesCode": "S"
        },
        {
            "__type": "BranchLocator",
            "ID": "48",
            "Name": "UMM AL QUWAIN",
            "lat": "25.3542173",
            "lng": "55.3952722",
            "Address": "UAQ Senan Hypermarket Branch : Unit No 02, Umm Dearaa, Umm Al Quwain, UAE.",
            "Area": "SHARJAH \u0026 NORTHERN EMIRATES",
            "City": "UMM AL QUWAIN",
            "CBEmiratesCode": "U"
        }
    ]
}